NOM,ADRECA,CATEGORIA,TIPUS,DESCRIPCIO,WKT,LAT,LNG
"CAP Rocafonda - ICS","Ronda de Rafael Estrany, 8. 08304 Mataró (BARCELONA)","Serveis sanitaris","Centres d'Atenció Primària (CAP)","Centre d'atenció primària de l'Institut Català de la Salut.","POINT (2.4517099308384 41.5499775794977)","41.5499775794977","2.4517099308384"
"CAP II  El Maresme ","Camí del Mig, 36. 08302 Mataró (BARCELONA)","Serveis sanitaris","Centres d'Atenció Primària (CAP)","Centre d'atenció primària de l'Institut Català de la Salut","POINT (2.43014567041679 41.5364998295583)","41.5364998295583","2.43014567041679"
"CAP Ronda Joan Prim - ICS","Ronda de Joan Prim, 35. 08302 Mataró (BARCELONA)","Serveis sanitaris","Centres d'Atenció Primària (CAP)","Centre d'atenció primària de l'Institut Català de la Salut","POINT (2.43588676606596 41.5386732249864)","41.5386732249864","2.43588676606596"
"CAP Mataró Centre - CSdM","Camí Ral, 208. 08301 Mataró (BARCELONA)","Serveis sanitaris","Centres d'Atenció Primària (CAP)","Centre d'atenció primària del Consorci Sanitari del Maresme.","POINT (2.4499391722225 41.5394749549434)","41.5394749549434","2.4499391722225"
"CAP El Maresme - ICS","Camí del Mig, 36. 08302 Mataró (BARCELONA)","Serveis sanitaris","Centres d'Atenció Primària (CAP)","CAP El Maresme /Centre d'especialiats mèdiques del servei Català de la Salut","POINT (2.43014567041679 41.5364998295583)","41.5364998295583","2.43014567041679"
"CAP Cirera-Molins - CDsM","Ronda de Frederic Mistral, 4. 08304 Mataró (BARCELONA)","Serveis sanitaris","Centres d'Atenció Primària (CAP)","Centre d'atenció primària del Consorci Sanitari del Maresme","POINT (2.43819522584059 41.5494930822358)","41.5494930822358","2.43819522584059"
"CAP Ronda Cerdanya - ICS","Carrer del Vallès, 37. 08303 Mataró (BARCELONA)","Serveis sanitaris","Centres d'Atenció Primària (CAP)","Centre d'atenció primària de l'Institut Català de la Salut.","POINT (2.42341828924221 41.5426007311139)","41.5426007311139","2.42341828924221"
"CAP La Llàntia - ICS","Carrer de la Verge de Guadalupe, 2. 08303 Mataró (BARCELONA)","Serveis sanitaris","Centres d'Atenció Primària (CAP)","Centre d'Atenció Primària de l'Institut Català de la Salut","POINT (2.42793891830721 41.5464396849819)","41.5464396849819","2.42793891830721"
